[
    [
        13208,
        {
            "id": 13208,
            "latitude": "51.044",
            "longitude": "13.746",
            "altitude": "",
            "country": "DE",
            "city": "Dresden",
            "origin": "luftdaten",
            "timestamp": "2019-05-15 21:50:10"
        }
    ],
    [
        19,
        {
            "id": 19,
            "latitude": "48.722",
            "longitude": "9.21",
            "altitude": "413.2",
            "country": "DE",
            "city": "Ostfildern",
            "origin": "luftdaten",
            "timestamp": "2019-05-15 21:51:42"
        }
    ],
    [
        42,
        {
            "id": 42,
            "latitude": "48.8",
            "longitude": "9.002",
            "altitude": "365.6",
            "country": "DE",
            "city": "Leonberg",
            "origin": "luftdaten",
            "timestamp": "2019-05-15 21:50:34"
        }
    ],
    [
        49,
        {
            "id": 49,
            "latitude": "48.53",
            "longitude": "9.2",
            "altitude": "373.1",
            "country": "DE",
            "city": "Sickenhausen",
            "origin": "luftdaten",
            "timestamp": "2019-05-15 21:51:57"
        }
    ],
    [
        3093,
        {
            "id": 3093,
            "latitude": "48.808",
            "longitude": "9.182",
            "altitude": "310.9",
            "country": "DE",
            "city": "Stuttgart Feuerbach",
            "origin": "luftdaten",
            "timestamp": "2019-05-15 21:51:36"
        }
    ],
    [
        57,
        {
            "id": 57,
            "latitude": "48.948",
            "longitude": "9.098",
            "altitude": "186.5",
            "country": "DE",
            "city": "Bietigheim-Bissingen",
            "origin": "luftdaten",
            "timestamp": "2019-05-15 21:50:01"
        }
    ],
    [
        65,
        {
            "id": 65,
            "latitude": "48.778",
            "longitude": "9.16",
            "altitude": "282.5",
            "country": "DE",
            "city": "Stuttgart",
            "origin": "luftdaten",
            "timestamp": "2019-05-15 21:51:37"
        }
    ],
    [
        69,
        {
            "id": 69,
            "latitude": "48.782",
            "longitude": "9.192",
            "altitude": "289.6",
            "country": "DE",
            "city": "Stuttgart",
            "origin": "luftdaten",
            "timestamp": "2019-05-15 21:51:44"
        }
    ],
    [
        142,
        {
            "id": 142,
            "latitude": "50.652",
            "longitude": "12.216",
            "altitude": "286.5",
            "country": "DE",
            "city": "Greiz",
            "origin": "luftdaten",
            "timestamp": "2019-05-15 21:50:27"
        }
    ],
    [
        68,
        {
            "id": 68,
            "latitude": "48.792",
            "longitude": "9.164",
            "altitude": "326.9",
            "country": "DE",
            "city": "Stuttgart",
            "origin": "luftdaten",
            "timestamp": "2019-05-15 21:51:42"
        }
    ],
    [
        3946,
        {
            "id": 3946,
            "latitude": "48.958",
            "longitude": "8.284",
            "altitude": "109.6",
            "country": "DE",
            "city": "Rheinstetten",
            "origin": "luftdaten",
            "timestamp": "2019-05-15 21:51:21"
        }
    ],
    [
        74,
        {
            "id": 74,
            "latitude": "48.828",
            "longitude": "9.126",
            "altitude": "311.7",
            "country": "DE",
            "city": "Korntal",
            "origin": "luftdaten",
            "timestamp": "2019-05-15 21:50:00"
        }
    ],
    [
        75,
        {
            "id": 75,
            "latitude": "48.784",
            "longitude": "9.364",
            "altitude": "306.7",
            "country": "DE",
            "city": "Weinstadt-Endersbach",
            "origin": "luftdaten",
            "timestamp": "2019-05-15 21:51:52"
        }
    ],
    [
        7169,
        {
            "id": 7169,
            "latitude": "48.794",
            "longitude": "9.264",
            "altitude": "306.6",
            "country": "DE",
            "city": "Fellbach",
            "origin": "luftdaten",
            "timestamp": "2019-05-15 21:52:00"
        }
    ],
    [
        77,
        {
            "id": 77,
            "latitude": "48.792",
            "longitude": "9.032",
            "altitude": "433.4",
            "country": "DE",
            "city": "Leonberg",
            "origin": "luftdaten",
            "timestamp": "2019-05-15 21:52:00"
        }
    ],
    [
        78,
        {
            "id": 78,
            "latitude": "48.788",
            "longitude": "9.01",
            "altitude": "369.3",
            "country": "DE",
            "city": "Leonberg",
            "origin": "luftdaten",
            "timestamp": "2019-05-15 21:50:40"
        }
    ],
    [
        82,
        {
            "id": 82,
            "latitude": "48.778",
            "longitude": "9.16",
            "altitude": "280.2",
            "country": "DE",
            "city": "Stuttgart",
            "origin": "luftdaten",
            "timestamp": "2019-05-15 21:50:19"
        }
    ],
    [
        84,
        {
            "id": 84,
            "latitude": "48.812",
            "longitude": "9.124",
            "altitude": "332.0",
            "country": "DE",
            "city": "Korntal",
            "origin": "luftdaten",
            "timestamp": "2019-05-15 21:50:31"
        }
    ],
    [
        687,
        {
            "id": 687,
            "latitude": "48.774",
            "longitude": "9.13",
            "altitude": "389.2",
            "country": "DE",
            "city": "Stuttgart",
            "origin": "luftdaten",
            "timestamp": "2019-05-15 21:50:47"
        }
    ],
    [
        88,
        {
            "id": 88,
            "latitude": "48.482",
            "longitude": "9.204",
            "altitude": "387.0",
            "country": "DE",
            "city": "Reutlingen",
            "origin": "luftdaten",
            "timestamp": "2019-05-15 21:50:52"
        }
    ],
    [
        56,
        {
            "id": 56,
            "latitude": "48.536",
            "longitude": "9.274",
            "altitude": "362.6",
            "country": "DE",
            "city": "Metzingen",
            "origin": "luftdaten",
            "timestamp": "2019-05-15 21:50:34"
        }
    ],
    [
        12860,
        {
            "id": 12860,
            "latitude": "48.48",
            "longitude": "9.258",
            "altitude": "475.5",
            "country": "DE",
            "city": "Eningen unter Achalm",
            "origin": "luftdaten",
            "timestamp": "2019-05-15 21:51:17"
        }
    ],
    [
        3326,
        {
            "id": 3326,
            "latitude": "48.554",
            "longitude": "9.294",
            "altitude": "368.1",
            "country": "DE",
            "city": "Riederich",
            "origin": "luftdaten",
            "timestamp": "2019-05-15 21:50:14"
        }
    ],
    [
        90,
        {
            "id": 90,
            "latitude": "48.81",
            "longitude": "9.12",
            "altitude": "343.8",
            "country": "DE",
            "city": "Korntal",
            "origin": "luftdaten",
            "timestamp": "2019-05-15 21:50:22"
        }
    ],
    [
        92,
        {
            "id": 92,
            "latitude": "48.812",
            "longitude": "9.142",
            "altitude": "308.4",
            "country": "DE",
            "city": "Stuttgart Feuerbach",
            "origin": "luftdaten",
            "timestamp": "2019-05-15 21:52:05"
        }
    ],
    [
        93,
        {
            "id": 93,
            "latitude": "48.786",
            "longitude": "9.194",
            "altitude": "263.4",
            "country": "DE",
            "city": "Stuttgart-Ost",
            "origin": "luftdaten",
            "timestamp": "2019-05-15 21:50:03"
        }
    ],
    [
        94,
        {
            "id": 94,
            "latitude": "48.764",
            "longitude": "9.168",
            "altitude": "264.1",
            "country": "DE",
            "city": "Stuttgart",
            "origin": "luftdaten",
            "timestamp": "2019-05-15 21:50:00"
        }
    ],
    [
        96,
        {
            "id": 96,
            "latitude": "48.786",
            "longitude": "9.192",
            "altitude": "244.2",
            "country": "DE",
            "city": "Stuttgart",
            "origin": "luftdaten",
            "timestamp": "2019-05-15 21:51:40"
        }
    ],
    [
        144,
        {
            "id": 144,
            "latitude": "48.728",
            "longitude": "9.338",
            "altitude": "260.8",
            "country": "DE",
            "city": "Esslingen am Neckar",
            "origin": "luftdaten",
            "timestamp": "2019-05-15 21:50:53"
        }
    ],
    [
        100,
        {
            "id": 100,
            "latitude": "48.804",
            "longitude": "9.234",
            "altitude": "238.5",
            "country": "DE",
            "city": "Stuttgart-Ost",
            "origin": "luftdaten",
            "timestamp": "2019-05-15 21:52:11"
        }
    ],
    [
        106,
        {
            "id": 106,
            "latitude": "48.728",
            "longitude": "9.3",
            "altitude": "342.3",
            "country": "DE",
            "city": "Esslingen am Neckar",
            "origin": "luftdaten",
            "timestamp": "2019-05-15 21:49:50"
        }
    ],
    [
        109,
        {
            "id": 109,
            "latitude": "19.806",
            "longitude": "-70.704",
            "altitude": "6.4",
            "country": "DO",
            "city": "Puerto Plata",
            "origin": "luftdaten",
            "timestamp": "2019-05-15 21:50:41"
        }
    ],
    [
        590,
        {
            "id": 590,
            "latitude": "48.772",
            "longitude": "8.846",
            "altitude": "390.3",
            "country": "DE",
            "city": "Weil der Stadt",
            "origin": "luftdaten",
            "timestamp": "2019-05-15 21:50:31"
        }
    ],
    [
        111,
        {
            "id": 111,
            "latitude": "48.396",
            "longitude": "9.99",
            "altitude": "477.2",
            "country": "DE",
            "city": "Ulm",
            "origin": "luftdaten",
            "timestamp": "2019-05-15 21:50:04"
        }
    ],
    [
        114,
        {
            "id": 114,
            "latitude": "48.26",
            "longitude": "10.988",
            "altitude": "510.4",
            "country": "DE",
            "city": "Mering",
            "origin": "luftdaten",
            "timestamp": "2019-05-15 21:51:48"
        }
    ],
    [
        115,
        {
            "id": 115,
            "latitude": "47.738",
            "longitude": "9.118",
            "altitude": "468.7",
            "country": "DE",
            "city": "Allensbach",
            "origin": "luftdaten",
            "timestamp": "2019-05-15 21:51:25"
        }
    ],
    [
        119,
        {
            "id": 119,
            "latitude": "48.808",
            "longitude": "9.246",
            "altitude": "283.4",
            "country": "DE",
            "city": "Fellbach",
            "origin": "luftdaten",
            "timestamp": "2019-05-15 21:49:49"
        }
    ],
    [
        125,
        {
            "id": 125,
            "latitude": "52.516",
            "longitude": "13.426",
            "altitude": "37.0",
            "country": "DE",
            "city": "Berlin",
            "origin": "luftdaten",
            "timestamp": "2019-05-15 21:50:28"
        }
    ],
    [
        127,
        {
            "id": 127,
            "latitude": "48.77",
            "longitude": "9.212",
            "altitude": "382.6",
            "country": "DE",
            "city": "Stuttgart-Ost",
            "origin": "luftdaten",
            "timestamp": "2019-05-15 21:51:10"
        }
    ],
    [
        128,
        {
            "id": 128,
            "latitude": "48.77",
            "longitude": "9.198",
            "altitude": "353.5",
            "country": "DE",
            "city": "Stuttgart-Ost",
            "origin": "luftdaten",
            "timestamp": "2019-05-15 21:50:10"
        }
    ],
    [
        132,
        {
            "id": 132,
            "latitude": "48.77",
            "longitude": "9.2",
            "altitude": "348.7",
            "country": "DE",
            "city": "Stuttgart-Ost",
            "origin": "luftdaten",
            "timestamp": "2019-05-15 21:52:10"
        }
    ],
    [
        133,
        {
            "id": 133,
            "latitude": "49.626",
            "longitude": "9.68",
            "altitude": "251.4",
            "country": "DE",
            "city": "Tauberbischofsheim",
            "origin": "luftdaten",
            "timestamp": "2019-05-15 21:50:03"
        }
    ],
    [
        134,
        {
            "id": 134,
            "latitude": "48.728",
            "longitude": "9.124",
            "altitude": "432.9",
            "country": "DE",
            "city": "Leinfelden-Echterdingen",
            "origin": "luftdaten",
            "timestamp": "2019-05-15 21:51:07"
        }
    ],
    [
        137,
        {
            "id": 137,
            "latitude": "48.578",
            "longitude": "9.18",
            "altitude": "421.1",
            "country": "DE",
            "city": "Pliezhausen",
            "origin": "luftdaten",
            "timestamp": "2019-05-15 21:51:46"
        }
    ],
    [
        143,
        {
            "id": 143,
            "latitude": "51.634",
            "longitude": "7.112",
            "altitude": "82.8",
            "country": "DE",
            "city": "Marl",
            "origin": "luftdaten",
            "timestamp": "2019-05-15 21:51:43"
        }
    ],
    [
        145,
        {
            "id": 145,
            "latitude": "48.686",
            "longitude": "9.738",
            "altitude": "351.0",
            "country": "DE",
            "city": "Salach",
            "origin": "luftdaten",
            "timestamp": "2019-05-15 21:51:23"
        }
    ],
    [
        146,
        {
            "id": 146,
            "latitude": "53.448",
            "longitude": "10.228",
            "altitude": "4.1",
            "country": "DE",
            "city": "Bergedorf",
            "origin": "luftdaten",
            "timestamp": "2019-05-15 21:51:51"
        }
    ],
    [
        149,
        {
            "id": 149,
            "latitude": "51.094",
            "longitude": "17.002",
            "altitude": "124.0",
            "country": "PL",
            "city": "Wrocław",
            "origin": "luftdaten",
            "timestamp": "2019-05-15 21:52:03"
        }
    ],
    [
        150,
        {
            "id": 150,
            "latitude": "52.352",
            "longitude": "14.058",
            "altitude": "41.4",
            "country": "DE",
            "city": "Fürstenwalde",
            "origin": "luftdaten",
            "timestamp": "2019-05-15 21:51:49"
        }
    ],
    [
        5879,
        {
            "id": 5879,
            "latitude": "52.534",
            "longitude": "13.35",
            "altitude": "38.1",
            "country": "DE",
            "city": "Moabit",
            "origin": "luftdaten",
            "timestamp": "2019-05-15 21:51:30"
        }
    ],
    [
        156,
        {
            "id": 156,
            "latitude": "48.738",
            "longitude": "9.228",
            "altitude": "431.0",
            "country": "DE",
            "city": "Ostfildern",
            "origin": "luftdaten",
            "timestamp": "2019-05-15 21:52:08"
        }
    ],
    [
        157,
        {
            "id": 157,
            "latitude": "52.38",
            "longitude": "9.67",
            "altitude": "59.1",
            "country": "DE",
            "city": "Hanover",
            "origin": "luftdaten",
            "timestamp": "2019-05-15 21:51:49"
        }
    ],
    [
        158,
        {
            "id": 158,
            "latitude": "49.31",
            "longitude": "8.642",
            "altitude": "104.7",
            "country": "DE",
            "city": "Walldorf",
            "origin": "luftdaten",
            "timestamp": "2019-05-15 21:49:44"
        }
    ],
    [
        159,
        {
            "id": 159,
            "latitude": "48.72",
            "longitude": "9.268",
            "altitude": "383.5",
            "country": "DE",
            "city": "Ostfildern",
            "origin": "luftdaten",
            "timestamp": "2019-05-15 21:51:58"
        }
    ],
    [
        160,
        {
            "id": 160,
            "latitude": "51.476",
            "longitude": "7.43",
            "altitude": "83.4",
            "country": "DE",
            "city": "Dortmund",
            "origin": "luftdaten",
            "timestamp": "2019-05-15 21:50:11"
        }
    ],
    [
        162,
        {
            "id": 162,
            "latitude": "52.52",
            "longitude": "13.476",
            "altitude": "49.5",
            "country": "DE",
            "city": "Fennpfuhl",
            "origin": "luftdaten",
            "timestamp": "2019-05-15 21:50:12"
        }
    ],
    [
        164,
        {
            "id": 164,
            "latitude": "50.784",
            "longitude": "6.496",
            "altitude": "136.2",
            "country": "DE",
            "city": "Düren",
            "origin": "luftdaten",
            "timestamp": "2019-05-15 21:52:12"
        }
    ],
    [
        165,
        {
            "id": 165,
            "latitude": "53.592",
            "longitude": "10.044",
            "altitude": "12.6",
            "country": "DE",
            "city": "Barmbek-Nord",
            "origin": "luftdaten",
            "timestamp": "2019-05-15 21:51:32"
        }
    ],
    [
        167,
        {
            "id": 167,
            "latitude": "47.558",
            "longitude": "7.602",
            "altitude": "256.4",
            "country": "CH",
            "city": "Birsfelden",
            "origin": "luftdaten",
            "timestamp": "2019-05-15 21:50:08"
        }
    ],
    [
        168,
        {
            "id": 168,
            "latitude": "48.872",
            "longitude": "9.226",
            "altitude": "290.6",
            "country": "DE",
            "city": "Kornwestheim",
            "origin": "luftdaten",
            "timestamp": "2019-05-15 21:50:15"
        }
    ],
    [
        169,
        {
            "id": 169,
            "latitude": "48.756",
            "longitude": "9.294",
            "altitude": "385.1",
            "country": "DE",
            "city": "Esslingen am Neckar",
            "origin": "luftdaten",
            "timestamp": "2019-05-15 21:49:46"
        }
    ],
    [
        173,
        {
            "id": 173,
            "latitude": "48.718",
            "longitude": "9.274",
            "altitude": "375.0",
            "country": "DE",
            "city": "Ostfildern",
            "origin": "luftdaten",
            "timestamp": "2019-05-15 21:50:32"
        }
    ],
    [
        187,
        {
            "id": 187,
            "latitude": "24.074",
            "longitude": "120.34",
            "altitude": "-5.4",
            "country": "TW",
            "city": "Chang-hua",
            "origin": "luftdaten",
            "timestamp": "2019-05-15 21:51:59"
        }
    ],
    [
        195,
        {
            "id": 195,
            "latitude": "53.55",
            "longitude": "9.944",
            "altitude": "26.8",
            "country": "DE",
            "city": "Altona",
            "origin": "luftdaten",
            "timestamp": "2019-05-15 21:50:03"
        }
    ],
    [
        196,
        {
            "id": 196,
            "latitude": "48.786",
            "longitude": "9.196",
            "altitude": "278.9",
            "country": "DE",
            "city": "Stuttgart-Ost",
            "origin": "luftdaten",
            "timestamp": "2019-05-15 21:50:01"
        }
    ],
    [
        197,
        {
            "id": 197,
            "latitude": "49.04",
            "longitude": "9.136",
            "altitude": "186.3",
            "country": "DE",
            "city": "Kirchheim am Neckar",
            "origin": "luftdaten",
            "timestamp": "2019-05-15 21:50:43"
        }
    ],
    [
        199,
        {
            "id": 199,
            "latitude": "48.758",
            "longitude": "9.174",
            "altitude": "344.7",
            "country": "DE",
            "city": "Stuttgart",
            "origin": "luftdaten",
            "timestamp": "2019-05-15 21:49:01"
        }
    ],
    [
        201,
        {
            "id": 201,
            "latitude": "48.758",
            "longitude": "9.29",
            "altitude": "385.6",
            "country": "DE",
            "city": "Esslingen am Neckar",
            "origin": "luftdaten",
            "timestamp": "2019-05-15 21:50:57"
        }
    ],
    [
        203,
        {
            "id": 203,
            "latitude": "48.73",
            "longitude": "9.12",
            "altitude": "437.8",
            "country": "DE",
            "city": "Leinfelden-Echterdingen",
            "origin": "luftdaten",
            "timestamp": "2019-05-15 21:52:04"
        }
    ],
    [
        204,
        {
            "id": 204,
            "latitude": "48.942",
            "longitude": "9.256",
            "altitude": "219.1",
            "country": "DE",
            "city": "Marbach am Neckar",
            "origin": "luftdaten",
            "timestamp": "2019-05-15 21:50:41"
        }
    ],
    [
        206,
        {
            "id": 206,
            "latitude": "48.782",
            "longitude": "9.252",
            "altitude": "232.1",
            "country": "DE",
            "city": "Stuttgart-Ost",
            "origin": "luftdaten",
            "timestamp": "2019-05-15 21:50:55"
        }
    ],
    [
        209,
        {
            "id": 209,
            "latitude": "48.774",
            "longitude": "9.238",
            "altitude": "229.5",
            "country": "DE",
            "city": "Stuttgart-Ost",
            "origin": "luftdaten",
            "timestamp": "2019-05-15 21:52:04"
        }
    ],
    [
        212,
        {
            "id": 212,
            "latitude": "48.748",
            "longitude": "9.174",
            "altitude": "457.1",
            "country": "DE",
            "city": "Stuttgart",
            "origin": "luftdaten",
            "timestamp": "2019-05-15 21:49:50"
        }
    ],
    [
        216,
        {
            "id": 216,
            "latitude": "48.672",
            "longitude": "9.374",
            "altitude": "265.7",
            "country": "DE",
            "city": "Wendlingen am Neckar",
            "origin": "luftdaten",
            "timestamp": "2019-05-15 21:50:05"
        }
    ],
    [
        217,
        {
            "id": 217,
            "latitude": "48.702",
            "longitude": "9.126",
            "altitude": "440.6",
            "country": "DE",
            "city": "Leinfelden-Echterdingen",
            "origin": "luftdaten",
            "timestamp": "2019-05-15 21:50:58"
        }
    ],
    [
        218,
        {
            "id": 218,
            "latitude": "51.902",
            "longitude": "9.542",
            "altitude": "145.5",
            "country": "DE",
            "city": "Golmbach",
            "origin": "luftdaten",
            "timestamp": "2019-05-15 21:50:25"
        }
    ],
    [
        63,
        {
            "id": 63,
            "latitude": "48.772",
            "longitude": "9.146",
            "altitude": "355.9",
            "country": "DE",
            "city": "Stuttgart",
            "origin": "luftdaten",
            "timestamp": "2019-05-15 21:50:46"
        }
    ],
    [
        220,
        {
            "id": 220,
            "latitude": "48.74",
            "longitude": "9.316",
            "altitude": "241.9",
            "country": "DE",
            "city": "Esslingen am Neckar",
            "origin": "luftdaten",
            "timestamp": "2019-05-15 21:47:25"
        }
    ],
    [
        222,
        {
            "id": 222,
            "latitude": "48.528",
            "longitude": "9.088",
            "altitude": "317.6",
            "country": "DE",
            "city": "Kusterdingen",
            "origin": "luftdaten",
            "timestamp": "2019-05-15 21:51:06"
        }
    ],
    [
        223,
        {
            "id": 223,
            "latitude": "48.528",
            "longitude": "9.06",
            "altitude": "338.9",
            "country": "DE",
            "city": "Tübingen",
            "origin": "luftdaten",
            "timestamp": "2019-05-15 21:51:47"
        }
    ],
    [
        226,
        {
            "id": 226,
            "latitude": "48.606",
            "longitude": "9.096",
            "altitude": "414.0",
            "country": "DE",
            "city": "Dettenhausen",
            "origin": "luftdaten",
            "timestamp": "2019-05-15 21:50:28"
        }
    ],
    [
        227,
        {
            "id": 227,
            "latitude": "48.442",
            "longitude": "9.998",
            "altitude": "585.2",
            "country": "DE",
            "city": "Beimerstetten",
            "origin": "luftdaten",
            "timestamp": "2019-05-15 21:50:18"
        }
    ],
    [
        229,
        {
            "id": 229,
            "latitude": "48.734",
            "longitude": "9.34",
            "altitude": "277.1",
            "country": "DE",
            "city": "Esslingen am Neckar",
            "origin": "luftdaten",
            "timestamp": "2019-05-15 21:50:48"
        }
    ],
    [
        230,
        {
            "id": 230,
            "latitude": "48.976",
            "longitude": "9.584",
            "altitude": "305.6",
            "country": "DE",
            "city": "Murrhardt",
            "origin": "luftdaten",
            "timestamp": "2019-05-15 21:52:04"
        }
    ],
    [
        231,
        {
            "id": 231,
            "latitude": "48.12",
            "longitude": "11.576",
            "altitude": "516.9",
            "country": "DE",
            "city": "Munich",
            "origin": "luftdaten",
            "timestamp": "2019-05-15 21:50:20"
        }
    ],
    [
        232,
        {
            "id": 232,
            "latitude": "48.5",
            "longitude": "9.172",
            "altitude": "344.0",
            "country": "DE",
            "city": "Wannweil",
            "origin": "luftdaten",
            "timestamp": "2019-05-15 21:50:16"
        }
    ],
    [
        404,
        {
            "id": 404,
            "latitude": "48.63",
            "longitude": "9.162",
            "altitude": "383.2",
            "country": "DE",
            "city": "Waldenbuch",
            "origin": "luftdaten",
            "timestamp": "2019-05-15 21:50:22"
        }
    ],
    [
        235,
        {
            "id": 235,
            "latitude": "48.52",
            "longitude": "9.052",
            "altitude": "333.7",
            "country": "DE",
            "city": "Tübingen",
            "origin": "luftdaten",
            "timestamp": "2019-05-15 21:50:28"
        }
    ],
    [
        551,
        {
            "id": 551,
            "latitude": "48.524",
            "longitude": "9.056",
            "altitude": "335.2",
            "country": "DE",
            "city": "Tübingen",
            "origin": "luftdaten",
            "timestamp": "2019-05-15 21:52:00"
        }
    ],
    [
        244,
        {
            "id": 244,
            "latitude": "48.508",
            "longitude": "9.052",
            "altitude": "326.0",
            "country": "DE",
            "city": "Tübingen",
            "origin": "luftdaten",
            "timestamp": "2019-05-15 21:50:29"
        }
    ],
    [
        246,
        {
            "id": 246,
            "latitude": "48.534",
            "longitude": "9.06",
            "altitude": "425.9",
            "country": "DE",
            "city": "Tübingen",
            "origin": "luftdaten",
            "timestamp": "2019-05-15 21:51:05"
        }
    ],
    [
        253,
        {
            "id": 253,
            "latitude": "48.006",
            "longitude": "7.828",
            "altitude": "255.1",
            "country": "DE",
            "city": "Freiburg",
            "origin": "luftdaten",
            "timestamp": "2019-05-15 21:51:57"
        }
    ],
    [
        255,
        {
            "id": 255,
            "latitude": "48.752",
            "longitude": "9.172",
            "altitude": "468.1",
            "country": "DE",
            "city": "Stuttgart",
            "origin": "luftdaten",
            "timestamp": "2019-05-15 21:51:54"
        }
    ],
    [
        254,
        {
            "id": 254,
            "latitude": "48.524",
            "longitude": "8.926",
            "altitude": "420.1",
            "country": "DE",
            "city": "Rottenburg",
            "origin": "luftdaten",
            "timestamp": "2019-05-15 21:51:20"
        }
    ],
    [
        258,
        {
            "id": 258,
            "latitude": "53.558",
            "longitude": "9.97",
            "altitude": "17.7",
            "country": "DE",
            "city": "St. Pauli",
            "origin": "luftdaten",
            "timestamp": "2019-05-15 21:50:35"
        }
    ],
    [
        259,
        {
            "id": 259,
            "latitude": "53.304",
            "longitude": "9.816",
            "altitude": "99.1",
            "country": "DE",
            "city": "Kakenstorf",
            "origin": "luftdaten",
            "timestamp": "2019-05-15 21:49:58"
        }
    ],
    [
        260,
        {
            "id": 260,
            "latitude": "48.724",
            "longitude": "9.094",
            "altitude": "483.3",
            "country": "DE",
            "city": "Sindelfingen",
            "origin": "luftdaten",
            "timestamp": "2019-05-15 21:51:33"
        }
    ],
    [
        262,
        {
            "id": 262,
            "latitude": "50.684",
            "longitude": "13.02",
            "altitude": "460.4",
            "country": "DE",
            "city": "Drebach",
            "origin": "luftdaten",
            "timestamp": "2019-05-15 21:51:24"
        }
    ],
    [
        59,
        {
            "id": 59,
            "latitude": "48.778",
            "longitude": "9.156",
            "altitude": "280.8",
            "country": "DE",
            "city": "Stuttgart",
            "origin": "luftdaten",
            "timestamp": "2019-05-15 21:50:57"
        }
    ],
    [
        265,
        {
            "id": 265,
            "latitude": "48.806",
            "longitude": "9.238",
            "altitude": "257.3",
            "country": "DE",
            "city": "Fellbach",
            "origin": "luftdaten",
            "timestamp": "2019-05-15 21:51:11"
        }
    ],
    [
        266,
        {
            "id": 266,
            "latitude": "49.514",
            "longitude": "8.294",
            "altitude": "95.0",
            "country": "DE",
            "city": "Lambsheim",
            "origin": "luftdaten",
            "timestamp": "2019-05-15 21:51:34"
        }
    ],
    [
        267,
        {
            "id": 267,
            "latitude": "51.99",
            "longitude": "8.598",
            "altitude": "176.7",
            "country": "DE",
            "city": "Oerlinghausen",
            "origin": "luftdaten",
            "timestamp": "2019-05-15 21:51:53"
        }
    ],
    [
        269,
        {
            "id": 269,
            "latitude": "48.884",
            "longitude": "9.192",
            "altitude": "318.0",
            "country": "DE",
            "city": "Ludwigsburg",
            "origin": "luftdaten",
            "timestamp": "2019-05-15 21:50:48"
        }
    ],
    [
        282,
        {
            "id": 282,
            "latitude": "47.43",
            "longitude": "8.54",
            "altitude": "447.0",
            "country": "CH",
            "city": "Zürich (Kreis 11) / Seebach",
            "origin": "luftdaten",
            "timestamp": "2019-05-15 21:50:23"
        }
    ],
    [
        271,
        {
            "id": 271,
            "latitude": "51.114",
            "longitude": "13.78",
            "altitude": "199.4",
            "country": "DE",
            "city": "Albertstadt",
            "origin": "luftdaten",
            "timestamp": "2019-05-15 21:51:34"
        }
    ],
    [
        275,
        {
            "id": 275,
            "latitude": "48.492",
            "longitude": "9.214",
            "altitude": "384.8",
            "country": "DE",
            "city": "Reutlingen",
            "origin": "luftdaten",
            "timestamp": "2019-05-15 21:50:08"
        }
    ],
    [
        276,
        {
            "id": 276,
            "latitude": "48.392",
            "longitude": "9.95",
            "altitude": "503.2",
            "country": "DE",
            "city": "Ulm",
            "origin": "luftdaten",
            "timestamp": "2019-05-15 21:51:50"
        }
    ],
    [
        277,
        {
            "id": 277,
            "latitude": "50.074",
            "longitude": "8.436",
            "altitude": "157.4",
            "country": "DE",
            "city": "Hofheim am Taunus",
            "origin": "luftdaten",
            "timestamp": "2019-05-15 21:52:05"
        }
    ],
    [
        278,
        {
            "id": 278,
            "latitude": "54.084",
            "longitude": "12.128",
            "altitude": "13.6",
            "country": "DE",
            "city": "Rostock",
            "origin": "luftdaten",
            "timestamp": "2019-05-15 21:50:43"
        }
    ],
    [
        279,
        {
            "id": 279,
            "latitude": "48.768",
            "longitude": "9.186",
            "altitude": "310.0",
            "country": "DE",
            "city": "Stuttgart",
            "origin": "luftdaten",
            "timestamp": "2019-05-15 21:50:06"
        }
    ],
    [
        281,
        {
            "id": 281,
            "latitude": "51.042",
            "longitude": "13.708",
            "altitude": "121.1",
            "country": "DE",
            "city": "Dresden",
            "origin": "luftdaten",
            "timestamp": "2019-05-15 21:49:57"
        }
    ],
    [
        283,
        {
            "id": 283,
            "latitude": "53.608",
            "longitude": "10.046",
            "altitude": "20.9",
            "country": "DE",
            "city": "Barmbek-Nord",
            "origin": "luftdaten",
            "timestamp": "2019-05-15 21:49:49"
        }
    ],
    [
        10464,
        {
            "id": 10464,
            "latitude": "52.498",
            "longitude": "13.442",
            "altitude": "37.1",
            "country": "DE",
            "city": "Berlin Treptow",
            "origin": "luftdaten",
            "timestamp": "2019-05-15 21:50:28"
        }
    ],
    [
        285,
        {
            "id": 285,
            "latitude": "49.006",
            "longitude": "12.104",
            "altitude": "349.9",
            "country": "DE",
            "city": "Regensburg",
            "origin": "luftdaten",
            "timestamp": "2019-05-15 21:52:13"
        }
    ],
    [
        286,
        {
            "id": 286,
            "latitude": "48.804",
            "longitude": "9.534",
            "altitude": "260.7",
            "country": "DE",
            "city": "Schorndorf",
            "origin": "luftdaten",
            "timestamp": "2019-05-15 21:51:16"
        }
    ],
    [
        287,
        {
            "id": 287,
            "latitude": "48.584",
            "longitude": "13.458",
            "altitude": "422.6",
            "country": "DE",
            "city": "Passau",
            "origin": "luftdaten",
            "timestamp": "2019-05-15 21:51:57"
        }
    ],
    [
        292,
        {
            "id": 292,
            "latitude": "48.8",
            "longitude": "9.216",
            "altitude": "223.1",
            "country": "DE",
            "city": "Stuttgart-Ost",
            "origin": "luftdaten",
            "timestamp": "2019-05-15 21:51:02"
        }
    ],
    [
        293,
        {
            "id": 293,
            "latitude": "53.888",
            "longitude": "11.464",
            "altitude": "13.5",
            "country": "DE",
            "city": "Wismar",
            "origin": "luftdaten",
            "timestamp": "2019-05-15 21:50:56"
        }
    ],
    [
        294,
        {
            "id": 294,
            "latitude": "49.2",
            "longitude": "9.242",
            "altitude": "196.3",
            "country": "DE",
            "city": "Neckarsulm",
            "origin": "luftdaten",
            "timestamp": "2019-05-15 21:51:27"
        }
    ],
    [
        295,
        {
            "id": 295,
            "latitude": "51.628",
            "longitude": "7.52",
            "altitude": "56.4",
            "country": "DE",
            "city": "Lünen",
            "origin": "luftdaten",
            "timestamp": "2019-05-15 21:50:58"
        }
    ],
    [
        296,
        {
            "id": 296,
            "latitude": "48.77",
            "longitude": "9.146",
            "altitude": "361.3",
            "country": "DE",
            "city": "Stuttgart",
            "origin": "luftdaten",
            "timestamp": "2019-05-15 21:52:01"
        }
    ],
    [
        297,
        {
            "id": 297,
            "latitude": "51.032",
            "longitude": "13.732",
            "altitude": "129.8",
            "country": "DE",
            "city": "Dresden",
            "origin": "luftdaten",
            "timestamp": "2019-05-15 21:50:26"
        }
    ],
    [
        302,
        {
            "id": 302,
            "latitude": "50.206",
            "longitude": "8.196",
            "altitude": "379.6",
            "country": "DE",
            "city": "Idstein",
            "origin": "luftdaten",
            "timestamp": "2019-05-15 21:49:51"
        }
    ],
    [
        304,
        {
            "id": 304,
            "latitude": "48.954",
            "longitude": "9.454",
            "altitude": "288.8",
            "country": "DE",
            "city": "Backnang",
            "origin": "luftdaten",
            "timestamp": "2019-05-15 21:49:51"
        }
    ],
    [
        305,
        {
            "id": 305,
            "latitude": "48.734",
            "longitude": "9.11",
            "altitude": "447.0",
            "country": "DE",
            "city": "Leinfelden-Echterdingen",
            "origin": "luftdaten",
            "timestamp": "2019-05-15 21:50:32"
        }
    ],
    [
        7809,
        {
            "id": 7809,
            "latitude": "49.828",
            "longitude": "9.524",
            "altitude": "352.2",
            "country": "DE",
            "city": "Esselbach",
            "origin": "luftdaten",
            "timestamp": "2019-05-15 21:51:38"
        }
    ],
    [
        308,
        {
            "id": 308,
            "latitude": "48.948",
            "longitude": "9.138",
            "altitude": "227.1",
            "country": "DE",
            "city": "Bietigheim-Bissingen",
            "origin": "luftdaten",
            "timestamp": "2019-05-15 21:50:11"
        }
    ],
    [
        309,
        {
            "id": 309,
            "latitude": "48.776",
            "longitude": "9.176",
            "altitude": "256.6",
            "country": "DE",
            "city": "Stuttgart",
            "origin": "luftdaten",
            "timestamp": "2019-05-15 21:50:17"
        }
    ],
    [
        310,
        {
            "id": 310,
            "latitude": "48.49",
            "longitude": "9.2",
            "altitude": "387.8",
            "country": "DE",
            "city": "Reutlingen",
            "origin": "luftdaten",
            "timestamp": "2019-05-15 21:51:00"
        }
    ],
    [
        28,
        {
            "id": 28,
            "latitude": "48.778",
            "longitude": "9.236",
            "altitude": "223.7",
            "country": "DE",
            "city": "Stuttgart-Ost",
            "origin": "luftdaten",
            "timestamp": "2019-05-15 21:50:58"
        }
    ],
    [
        312,
        {
            "id": 312,
            "latitude": "48.646",
            "longitude": "9.446",
            "altitude": "311.5",
            "country": "DE",
            "city": "Kirchheim unter Teck",
            "origin": "luftdaten",
            "timestamp": "2019-05-15 21:51:07"
        }
    ],
    [
        315,
        {
            "id": 315,
            "latitude": "48.738",
            "longitude": "9.126",
            "altitude": "386.5",
            "country": "DE",
            "city": "Leinfelden-Echterdingen",
            "origin": "luftdaten",
            "timestamp": "2019-05-15 21:50:12"
        }
    ],
    [
        317,
        {
            "id": 317,
            "latitude": "48.758",
            "longitude": "9.302",
            "altitude": "328.1",
            "country": "DE",
            "city": "Esslingen am Neckar",
            "origin": "luftdaten",
            "timestamp": "2019-05-15 21:51:04"
        }
    ],
    [
        318,
        {
            "id": 318,
            "latitude": "48.766",
            "longitude": "9.17",
            "altitude": "262.5",
            "country": "DE",
            "city": "Stuttgart",
            "origin": "luftdaten",
            "timestamp": "2019-05-15 21:50:19"
        }
    ],
    [
        319,
        {
            "id": 319,
            "latitude": "48.764",
            "longitude": "9.174",
            "altitude": "291.3",
            "country": "DE",
            "city": "Stuttgart",
            "origin": "luftdaten",
            "timestamp": "2019-05-15 21:51:13"
        }
    ],
    [
        320,
        {
            "id": 320,
            "latitude": "48.768",
            "longitude": "9.16",
            "altitude": "310.4",
            "country": "DE",
            "city": "Stuttgart",
            "origin": "luftdaten",
            "timestamp": "2019-05-15 21:50:05"
        }
    ],
    [
        321,
        {
            "id": 321,
            "latitude": "48.814",
            "longitude": "9.132",
            "altitude": "332.7",
            "country": "DE",
            "city": "Stuttgart Feuerbach",
            "origin": "luftdaten",
            "timestamp": "2019-05-15 21:50:45"
        }
    ],
    [
        322,
        {
            "id": 322,
            "latitude": "48.846",
            "longitude": "9.23",
            "altitude": "252.4",
            "country": "DE",
            "city": "Stuttgart Mühlhausen",
            "origin": "luftdaten",
            "timestamp": "2019-05-15 21:50:42"
        }
    ],
    [
        325,
        {
            "id": 325,
            "latitude": "53.064",
            "longitude": "8.808",
            "altitude": "6.8",
            "country": "DE",
            "city": "Bremen",
            "origin": "luftdaten",
            "timestamp": "2019-05-15 21:51:13"
        }
    ],
    [
        327,
        {
            "id": 327,
            "latitude": "48.774",
            "longitude": "8.944",
            "altitude": "411.4",
            "country": "DE",
            "city": "Renningen",
            "origin": "luftdaten",
            "timestamp": "2019-05-15 21:51:48"
        }
    ],
    [
        328,
        {
            "id": 328,
            "latitude": "50.086",
            "longitude": "8.576",
            "altitude": "96.8",
            "country": "DE",
            "city": "Niederrad",
            "origin": "luftdaten",
            "timestamp": "2019-05-15 21:50:05"
        }
    ],
    [
        331,
        {
            "id": 331,
            "latitude": "48.414",
            "longitude": "9.938",
            "altitude": "566.1",
            "country": "DE",
            "city": "Klingenstein",
            "origin": "luftdaten",
            "timestamp": "2019-05-15 21:51:46"
        }
    ],
    [
        334,
        {
            "id": 334,
            "latitude": "48.808",
            "longitude": "9.222",
            "altitude": "222.3",
            "country": "DE",
            "city": "Stuttgart-Ost",
            "origin": "luftdaten",
            "timestamp": "2019-05-15 21:52:11"
        }
    ],
    [
        335,
        {
            "id": 335,
            "latitude": "48.694",
            "longitude": "9.12",
            "altitude": "461.8",
            "country": "DE",
            "city": "Steinenbronn",
            "origin": "luftdaten",
            "timestamp": "2019-05-15 21:50:28"
        }
    ],
    [
        336,
        {
            "id": 336,
            "latitude": "48.69",
            "longitude": "9.016",
            "altitude": "474.5",
            "country": "DE",
            "city": "Böblingen",
            "origin": "luftdaten",
            "timestamp": "2019-05-15 21:51:51"
        }
    ],
    [
        339,
        {
            "id": 339,
            "latitude": "48.902",
            "longitude": "9.468",
            "altitude": "301.0",
            "country": "DE",
            "city": "Allmersbach im Tal",
            "origin": "luftdaten",
            "timestamp": "2019-05-15 21:51:20"
        }
    ],
    [
        341,
        {
            "id": 341,
            "latitude": "48.724",
            "longitude": "9.096",
            "altitude": "469.1",
            "country": "DE",
            "city": "Leinfelden-Echterdingen",
            "origin": "luftdaten",
            "timestamp": "2019-05-15 21:51:12"
        }
    ],
    [
        10792,
        {
            "id": 10792,
            "latitude": "52.486",
            "longitude": "13.518",
            "altitude": "38.9",
            "country": "DE",
            "city": "Karlshorst",
            "origin": "luftdaten",
            "timestamp": "2019-05-15 21:50:56"
        }
    ],
    [
        301,
        {
            "id": 301,
            "latitude": "48.766",
            "longitude": "9.178",
            "altitude": "290.6",
            "country": "DE",
            "city": "Stuttgart",
            "origin": "luftdaten",
            "timestamp": "2019-05-15 21:51:07"
        }
    ],
    [
        347,
        {
            "id": 347,
            "latitude": "48.78",
            "longitude": "9.158",
            "altitude": "287.3",
            "country": "DE",
            "city": "Stuttgart",
            "origin": "luftdaten",
            "timestamp": "2019-05-15 21:50:21"
        }
    ],
    [
        349,
        {
            "id": 349,
            "latitude": "48.978",
            "longitude": "8.452",
            "altitude": "122.4",
            "country": "DE",
            "city": "Karlsruhe",
            "origin": "luftdaten",
            "timestamp": "2019-05-15 21:50:18"
        }
    ],
    [
        350,
        {
            "id": 350,
            "latitude": "48.058",
            "longitude": "12.57",
            "altitude": "486.1",
            "country": "DE",
            "city": "Tacherting",
            "origin": "luftdaten",
            "timestamp": "2019-05-15 21:50:43"
        }
    ],
    [
        352,
        {
            "id": 352,
            "latitude": "48.626",
            "longitude": "9.238",
            "altitude": "363.5",
            "country": "DE",
            "city": "Neckartailfingen",
            "origin": "luftdaten",
            "timestamp": "2019-05-15 21:52:05"
        }
    ],
    [
        354,
        {
            "id": 354,
            "latitude": "42.694",
            "longitude": "23.336",
            "altitude": "555.8",
            "country": "BG",
            "city": "Sofia",
            "origin": "luftdaten",
            "timestamp": "2019-05-15 21:50:06"
        }
    ],
    [
        357,
        {
            "id": 357,
            "latitude": "50.842",
            "longitude": "13.082",
            "altitude": "276.5",
            "country": "DE",
            "city": "Flöha",
            "origin": "luftdaten",
            "timestamp": "2019-05-15 21:51:56"
        }
    ],
    [
        358,
        {
            "id": 358,
            "latitude": "49.39",
            "longitude": "8.798",
            "altitude": "126.9",
            "country": "DE",
            "city": "Neckargemünd",
            "origin": "luftdaten",
            "timestamp": "2019-05-15 21:50:17"
        }
    ],
    [
        359,
        {
            "id": 359,
            "latitude": "52.386",
            "longitude": "10.538",
            "altitude": "79.0",
            "country": "DE",
            "city": "Vordorf",
            "origin": "luftdaten",
            "timestamp": "2019-05-15 21:51:00"
        }
    ],
    [
        360,
        {
            "id": 360,
            "latitude": "48.764",
            "longitude": "9.164",
            "altitude": "271.1",
            "country": "DE",
            "city": "Stuttgart",
            "origin": "luftdaten",
            "timestamp": "2019-05-15 21:50:50"
        }
    ],
    [
        361,
        {
            "id": 361,
            "latitude": "42.626",
            "longitude": "23.378",
            "altitude": "628.1",
            "country": "BG",
            "city": "Sofia",
            "origin": "luftdaten",
            "timestamp": "2019-05-15 21:50:05"
        }
    ],
    [
        363,
        {
            "id": 363,
            "latitude": "48.764",
            "longitude": "9.172",
            "altitude": "269.1",
            "country": "DE",
            "city": "Stuttgart",
            "origin": "luftdaten",
            "timestamp": "2019-05-15 21:49:59"
        }
    ],
    [
        365,
        {
            "id": 365,
            "latitude": "50.128",
            "longitude": "8.728",
            "altitude": "100.8",
            "country": "DE",
            "city": "Frankfurt am Main",
            "origin": "luftdaten",
            "timestamp": "2019-05-15 21:51:40"
        }
    ],
    [
        5393,
        {
            "id": 5393,
            "latitude": "48.728",
            "longitude": "9.14",
            "altitude": "429.4",
            "country": "DE",
            "city": "Leinfelden-Echterdingen",
            "origin": "luftdaten",
            "timestamp": "2019-05-15 21:50:42"
        }
    ],
    [
        367,
        {
            "id": 367,
            "latitude": "48.796",
            "longitude": "9.19",
            "altitude": "266.2",
            "country": "DE",
            "city": "Stuttgart",
            "origin": "luftdaten",
            "timestamp": "2019-05-15 21:51:32"
        }
    ],
    [
        368,
        {
            "id": 368,
            "latitude": "48.698",
            "longitude": "9.116",
            "altitude": "463.8",
            "country": "DE",
            "city": "Steinenbronn",
            "origin": "luftdaten",
            "timestamp": "2019-05-15 21:50:59"
        }
    ],
    [
        369,
        {
            "id": 369,
            "latitude": "47.502",
            "longitude": "8.346",
            "altitude": "453.5",
            "country": "CH",
            "city": "Ehrendingen",
            "origin": "luftdaten",
            "timestamp": "2019-05-15 21:47:53"
        }
    ],
    [
        370,
        {
            "id": 370,
            "latitude": "48.81",
            "longitude": "9.15",
            "altitude": "297.4",
            "country": "DE",
            "city": "Stuttgart Feuerbach",
            "origin": "luftdaten",
            "timestamp": "2019-05-15 21:49:47"
        }
    ],
    [
        371,
        {
            "id": 371,
            "latitude": "48.916",
            "longitude": "9.124",
            "altitude": "265.7",
            "country": "DE",
            "city": "Tamm",
            "origin": "luftdaten",
            "timestamp": "2019-05-15 21:52:03"
        }
    ],
    [
        372,
        {
            "id": 372,
            "latitude": "47.2",
            "longitude": "9.748",
            "altitude": "537.0",
            "country": "AT",
            "city": "Bludesch",
            "origin": "luftdaten",
            "timestamp": "2019-05-15 21:50:40"
        }
    ],
    [
        373,
        {
            "id": 373,
            "latitude": "49.342",
            "longitude": "8.146",
            "altitude": "147.4",
            "country": "DE",
            "city": "Neustadt",
            "origin": "luftdaten",
            "timestamp": "2019-05-15 21:52:09"
        }
    ],
    [
        374,
        {
            "id": 374,
            "latitude": "52.568",
            "longitude": "13.402",
            "altitude": "45.0",
            "country": "DE",
            "city": "Pankow",
            "origin": "luftdaten",
            "timestamp": "2019-05-15 21:51:13"
        }
    ],
    [
        375,
        {
            "id": 375,
            "latitude": "48.748",
            "longitude": "9.118",
            "altitude": "413.9",
            "country": "DE",
            "city": "Stuttgart",
            "origin": "luftdaten",
            "timestamp": "2019-05-15 21:52:03"
        }
    ],
    [
        377,
        {
            "id": 377,
            "latitude": "42.708",
            "longitude": "23.312",
            "altitude": "552.1",
            "country": "BG",
            "city": "Sofia",
            "origin": "luftdaten",
            "timestamp": "2019-05-15 21:50:07"
        }
    ],
    [
        379,
        {
            "id": 379,
            "latitude": "49.022",
            "longitude": "12.148",
            "altitude": "332.0",
            "country": "DE",
            "city": "Tegernheim",
            "origin": "luftdaten",
            "timestamp": "2019-05-15 21:49:56"
        }
    ],
    [
        380,
        {
            "id": 380,
            "latitude": "48.738",
            "longitude": "9.214",
            "altitude": "446.1",
            "country": "DE",
            "city": "Ostfildern",
            "origin": "luftdaten",
            "timestamp": "2019-05-15 21:50:10"
        }
    ],
    [
        381,
        {
            "id": 381,
            "latitude": "48.77",
            "longitude": "9.188",
            "altitude": "295.7",
            "country": "DE",
            "city": "Stuttgart",
            "origin": "luftdaten",
            "timestamp": "2019-05-15 21:47:28"
        }
    ],
    [
        382,
        {
            "id": 382,
            "latitude": "42.704",
            "longitude": "23.312",
            "altitude": "544.4",
            "country": "BG",
            "city": "Sofia",
            "origin": "luftdaten",
            "timestamp": "2019-05-15 21:49:45"
        }
    ],
    [
        383,
        {
            "id": 383,
            "latitude": "48.766",
            "longitude": "9.27",
            "altitude": "249.8",
            "country": "DE",
            "city": "Esslingen am Neckar",
            "origin": "luftdaten",
            "timestamp": "2019-05-15 21:49:57"
        }
    ],
    [
        384,
        {
            "id": 384,
            "latitude": "49.976",
            "longitude": "8.24",
            "altitude": "127.8",
            "country": "DE",
            "city": "Mainz",
            "origin": "luftdaten",
            "timestamp": "2019-05-15 21:51:10"
        }
    ],
    [
        385,
        {
            "id": 385,
            "latitude": "48.502",
            "longitude": "9.23",
            "altitude": "434.6",
            "country": "DE",
            "city": "Reutlingen",
            "origin": "luftdaten",
            "timestamp": "2019-05-15 21:52:06"
        }
    ],
    [
        387,
        {
            "id": 387,
            "latitude": "48.772",
            "longitude": "9.186",
            "altitude": "273.4",
            "country": "DE",
            "city": "Stuttgart",
            "origin": "luftdaten",
            "timestamp": "2019-05-15 21:49:56"
        }
    ],
    [
        389,
        {
            "id": 389,
            "latitude": "48.71",
            "longitude": "9.392",
            "altitude": "262.0",
            "country": "DE",
            "city": "Deizisau",
            "origin": "luftdaten",
            "timestamp": "2019-05-15 21:51:59"
        }
    ],
    [
        390,
        {
            "id": 390,
            "latitude": "51.062",
            "longitude": "13.752",
            "altitude": "113.9",
            "country": "DE",
            "city": "Dresden",
            "origin": "luftdaten",
            "timestamp": "2019-05-15 21:51:24"
        }
    ],
    [
        391,
        {
            "id": 391,
            "latitude": "51.052",
            "longitude": "6.954",
            "altitude": "42.9",
            "country": "DE",
            "city": "Leverkusen",
            "origin": "luftdaten",
            "timestamp": "2019-05-15 21:51:46"
        }
    ],
    [
        392,
        {
            "id": 392,
            "latitude": "48.838",
            "longitude": "2.322",
            "altitude": "63.4",
            "country": "FR",
            "city": "Montrouge",
            "origin": "luftdaten",
            "timestamp": "2019-05-15 21:50:05"
        }
    ],
    [
        393,
        {
            "id": 393,
            "latitude": "38.136",
            "longitude": "13.362",
            "altitude": "7.5",
            "country": "IT",
            "city": "Palermo",
            "origin": "luftdaten",
            "timestamp": "2019-05-15 21:51:35"
        }
    ],
    [
        394,
        {
            "id": 394,
            "latitude": "48.824",
            "longitude": "9.072",
            "altitude": "299.1",
            "country": "DE",
            "city": "Ditzingen",
            "origin": "luftdaten",
            "timestamp": "2019-05-15 21:51:30"
        }
    ],
    [
        395,
        {
            "id": 395,
            "latitude": "48.132",
            "longitude": "11.608",
            "altitude": "533.1",
            "country": "DE",
            "city": "Bogenhausen",
            "origin": "luftdaten",
            "timestamp": "2019-05-15 21:50:14"
        }
    ],
    [
        396,
        {
            "id": 396,
            "latitude": "52.558",
            "longitude": "13.188",
            "altitude": "35.2",
            "country": "DE",
            "city": "Spandau",
            "origin": "luftdaten",
            "timestamp": "2019-05-15 21:51:20"
        }
    ],
    [
        397,
        {
            "id": 397,
            "latitude": "50.564",
            "longitude": "7.272",
            "altitude": "57.5",
            "country": "DE",
            "city": "Linz am Rhein",
            "origin": "luftdaten",
            "timestamp": "2019-05-15 21:49:55"
        }
    ],
    [
        2657,
        {
            "id": 2657,
            "latitude": "47.22",
            "longitude": "9.634",
            "altitude": "480.6",
            "country": "AT",
            "city": "Frastanz",
            "origin": "luftdaten",
            "timestamp": "2019-05-15 21:50:54"
        }
    ],
    [
        400,
        {
            "id": 400,
            "latitude": "53.55",
            "longitude": "9.932",
            "altitude": "29.5",
            "country": "DE",
            "city": "Altona",
            "origin": "luftdaten",
            "timestamp": "2019-05-15 21:51:48"
        }
    ],
    [
        406,
        {
            "id": 406,
            "latitude": "48.566",
            "longitude": "13.45",
            "altitude": "302.2",
            "country": "DE",
            "city": "Passau",
            "origin": "luftdaten",
            "timestamp": "2019-05-15 21:52:01"
        }
    ],
    [
        407,
        {
            "id": 407,
            "latitude": "48.884",
            "longitude": "9.126",
            "altitude": "297.1",
            "country": "DE",
            "city": "Möglingen",
            "origin": "luftdaten",
            "timestamp": "2019-05-15 21:51:30"
        }
    ],
    [
        408,
        {
            "id": 408,
            "latitude": "51.168",
            "longitude": "6.636",
            "altitude": "55.1",
            "country": "DE",
            "city": "Neubrück",
            "origin": "luftdaten",
            "timestamp": "2019-05-15 21:51:49"
        }
    ],
    [
        410,
        {
            "id": 410,
            "latitude": "48.954",
            "longitude": "9.474",
            "altitude": "292.7",
            "country": "DE",
            "city": "Backnang",
            "origin": "luftdaten",
            "timestamp": "2019-05-15 21:50:50"
        }
    ],
    [
        412,
        {
            "id": 412,
            "latitude": "51.4",
            "longitude": "7.48",
            "altitude": "127.6",
            "country": "DE",
            "city": "Herdecke",
            "origin": "luftdaten",
            "timestamp": "2019-05-15 21:49:55"
        }
    ],
    [
        413,
        {
            "id": 413,
            "latitude": "51.256",
            "longitude": "7.14",
            "altitude": "264.4",
            "country": "DE",
            "city": "Wuppertal",
            "origin": "luftdaten",
            "timestamp": "2019-05-15 21:50:36"
        }
    ],
    [
        422,
        {
            "id": 422,
            "latitude": "51.28",
            "longitude": "7.236",
            "altitude": "204.1",
            "country": "DE",
            "city": "Schwelm",
            "origin": "luftdaten",
            "timestamp": "2019-05-15 21:50:34"
        }
    ],
    [
        427,
        {
            "id": 427,
            "latitude": "51.258",
            "longitude": "7.154",
            "altitude": "147.3",
            "country": "DE",
            "city": "Wuppertal",
            "origin": "luftdaten",
            "timestamp": "2019-05-15 21:50:33"
        }
    ],
    [
        8905,
        {
            "id": 8905,
            "latitude": "51.294",
            "longitude": "7.212",
            "altitude": "237.7",
            "country": "DE",
            "city": "Schwelm",
            "origin": "luftdaten",
            "timestamp": "2019-05-15 21:50:11"
        }
    ],
    [
        441,
        {
            "id": 441,
            "latitude": "51.192",
            "longitude": "6.788",
            "altitude": "42.0",
            "country": "DE",
            "city": "Düsseldorf",
            "origin": "luftdaten",
            "timestamp": "2019-05-15 21:50:21"
        }
    ],
    [
        443,
        {
            "id": 443,
            "latitude": "51.448",
            "longitude": "7.028",
            "altitude": "76.8",
            "country": "DE",
            "city": "Essen",
            "origin": "luftdaten",
            "timestamp": "2019-05-15 21:51:30"
        }
    ],
    [
        449,
        {
            "id": 449,
            "latitude": "48.74",
            "longitude": "9.128",
            "altitude": "374.5",
            "country": "DE",
            "city": "Leinfelden-Echterdingen",
            "origin": "luftdaten",
            "timestamp": "2019-05-15 21:49:57"
        }
    ],
    [
        450,
        {
            "id": 450,
            "latitude": "49.912",
            "longitude": "8.24",
            "altitude": "215.8",
            "country": "DE",
            "city": "Harxheim",
            "origin": "luftdaten",
            "timestamp": "2019-05-15 21:51:26"
        }
    ],
    [
        451,
        {
            "id": 451,
            "latitude": "47.988",
            "longitude": "7.842",
            "altitude": "271.9",
            "country": "DE",
            "city": "Freiburg",
            "origin": "luftdaten",
            "timestamp": "2019-05-15 21:48:53"
        }
    ],
    [
        452,
        {
            "id": 452,
            "latitude": "53.546",
            "longitude": "9.91",
            "altitude": "12.3",
            "country": "DE",
            "city": "Ottensen",
            "origin": "luftdaten",
            "timestamp": "2019-05-15 21:50:44"
        }
    ],
    [
        455,
        {
            "id": 455,
            "latitude": "48.194",
            "longitude": "11.548",
            "altitude": "504.4",
            "country": "DE",
            "city": "Oberschleißheim",
            "origin": "luftdaten",
            "timestamp": "2019-05-15 21:50:00"
        }
    ],
    [
        456,
        {
            "id": 456,
            "latitude": "53.584",
            "longitude": "9.968",
            "altitude": "15.7",
            "country": "DE",
            "city": "Hamburg-Nord",
            "origin": "luftdaten",
            "timestamp": "2019-05-15 21:50:38"
        }
    ],
    [
        458,
        {
            "id": 458,
            "latitude": "48.694",
            "longitude": "9.17",
            "altitude": "420.0",
            "country": "DE",
            "city": "Leinfelden-Echterdingen",
            "origin": "luftdaten",
            "timestamp": "2019-05-15 21:51:41"
        }
    ],
    [
        459,
        {
            "id": 459,
            "latitude": "48.676",
            "longitude": "9.034",
            "altitude": "470.3",
            "country": "DE",
            "city": "Böblingen",
            "origin": "luftdaten",
            "timestamp": "2019-05-15 21:51:05"
        }
    ],
    [
        461,
        {
            "id": 461,
            "latitude": "51.436",
            "longitude": "7.312",
            "altitude": "114.6",
            "country": "DE",
            "city": "Witten",
            "origin": "luftdaten",
            "timestamp": "2019-05-15 21:50:58"
        }
    ],
    [
        462,
        {
            "id": 462,
            "latitude": "48.758",
            "longitude": "9.256",
            "altitude": "235.7",
            "country": "DE",
            "city": "Ostfildern",
            "origin": "luftdaten",
            "timestamp": "2019-05-15 21:51:14"
        }
    ],
    [
        464,
        {
            "id": 464,
            "latitude": "48.814",
            "longitude": "8.194",
            "altitude": "127.8",
            "country": "DE",
            "city": "Iffezheim",
            "origin": "luftdaten",
            "timestamp": "2019-05-15 21:50:00"
        }
    ],
    [
        466,
        {
            "id": 466,
            "latitude": "51.48",
            "longitude": "7.008",
            "altitude": "50.6",
            "country": "DE",
            "city": "Essen",
            "origin": "luftdaten",
            "timestamp": "2019-05-15 21:51:15"
        }
    ],
    [
        469,
        {
            "id": 469,
            "latitude": "48.77",
            "longitude": "9.176",
            "altitude": "254.5",
            "country": "DE",
            "city": "Stuttgart",
            "origin": "luftdaten",
            "timestamp": "2019-05-15 21:51:47"
        }
    ],
    [
        470,
        {
            "id": 470,
            "latitude": "50",
            "longitude": "8.432",
            "altitude": "91.8",
            "country": "DE",
            "city": "Rüsselsheim am Main",
            "origin": "luftdaten",
            "timestamp": "2019-05-15 21:50:16"
        }
    ],
    [
        472,
        {
            "id": 472,
            "latitude": "48.784",
            "longitude": "9.128",
            "altitude": "362.7",
            "country": "DE",
            "city": "Stuttgart Feuerbach",
            "origin": "luftdaten",
            "timestamp": "2019-05-15 21:51:24"
        }
    ],
    [
        479,
        {
            "id": 479,
            "latitude": "53.514",
            "longitude": "9.994",
            "altitude": "3.3",
            "country": "DE",
            "city": "Kleiner Grasbrook",
            "origin": "luftdaten",
            "timestamp": "2019-05-15 21:50:18"
        }
    ],
    [
        480,
        {
            "id": 480,
            "latitude": "48.124",
            "longitude": "11.578",
            "altitude": "516.1",
            "country": "DE",
            "city": "Munich",
            "origin": "luftdaten",
            "timestamp": "2019-05-15 21:51:04"
        }
    ],
    [
        482,
        {
            "id": 482,
            "latitude": "48.778",
            "longitude": "9.21",
            "altitude": "278.0",
            "country": "DE",
            "city": "Stuttgart-Ost",
            "origin": "luftdaten",
            "timestamp": "2019-05-15 21:50:30"
        }
    ],
    [
        483,
        {
            "id": 483,
            "latitude": "50.06",
            "longitude": "8.26",
            "altitude": "121.5",
            "country": "DE",
            "city": "Wiesbaden",
            "origin": "luftdaten",
            "timestamp": "2019-05-15 21:51:16"
        }
    ],
    [
        485,
        {
            "id": 485,
            "latitude": "51.44",
            "longitude": "6.646",
            "altitude": "31.6",
            "country": "DE",
            "city": "Moers",
            "origin": "luftdaten",
            "timestamp": "2019-05-15 21:50:42"
        }
    ],
    [
        486,
        {
            "id": 486,
            "latitude": "48.726",
            "longitude": "8.964",
            "altitude": "463.2",
            "country": "DE",
            "city": "Magstadt",
            "origin": "luftdaten",
            "timestamp": "2019-05-15 21:51:35"
        }
    ],
    [
        487,
        {
            "id": 487,
            "latitude": "50.126",
            "longitude": "8.698",
            "altitude": "123.7",
            "country": "DE",
            "city": "Frankfurt am Main",
            "origin": "luftdaten",
            "timestamp": "2019-05-15 21:50:07"
        }
    ],
    [
        488,
        {
            "id": 488,
            "latitude": "49.14",
            "longitude": "9.22",
            "altitude": "167.8",
            "country": "DE",
            "city": "Heilbronn",
            "origin": "luftdaten",
            "timestamp": "2019-05-15 21:51:35"
        }
    ],
    [
        489,
        {
            "id": 489,
            "latitude": "47.806",
            "longitude": "12.858",
            "altitude": "528.9",
            "country": "DE",
            "city": "Teisendorf",
            "origin": "luftdaten",
            "timestamp": "2019-05-15 21:51:33"
        }
    ],
    [
        491,
        {
            "id": 491,
            "latitude": "53.48",
            "longitude": "10.174",
            "altitude": "3.5",
            "country": "DE",
            "city": "Bergedorf",
            "origin": "luftdaten",
            "timestamp": "2019-05-15 21:50:10"
        }
    ],
    [
        493,
        {
            "id": 493,
            "latitude": "52.002",
            "longitude": "8.494",
            "altitude": "141.5",
            "country": "DE",
            "city": "Bielefeld",
            "origin": "luftdaten",
            "timestamp": "2019-05-15 21:50:28"
        }
    ],
    [
        494,
        {
            "id": 494,
            "latitude": "48.744",
            "longitude": "10.106",
            "altitude": "508.9",
            "country": "DE",
            "city": "Königsbronn Abbey",
            "origin": "luftdaten",
            "timestamp": "2019-05-15 21:51:00"
        }
    ],
    [
        8170,
        {
            "id": 8170,
            "latitude": "48.118",
            "longitude": "11.628",
            "altitude": "532.4",
            "country": "DE",
            "city": "Bogenhausen",
            "origin": "luftdaten",
            "timestamp": "2019-05-15 21:49:54"
        }
    ],
    [
        499,
        {
            "id": 499,
            "latitude": "42.648",
            "longitude": "23.27",
            "altitude": "724.5",
            "country": "BG",
            "city": "Sofia",
            "origin": "luftdaten",
            "timestamp": "2019-05-15 21:49:50"
        }
    ],
    [
        500,
        {
            "id": 500,
            "latitude": "42.638",
            "longitude": "23.332",
            "altitude": "648.8",
            "country": "BG",
            "city": "Sofia",
            "origin": "luftdaten",
            "timestamp": "2019-05-15 21:50:20"
        }
    ],
    [
        501,
        {
            "id": 501,
            "latitude": "48.214",
            "longitude": "11.35",
            "altitude": "503.3",
            "country": "DE",
            "city": "Olching",
            "origin": "luftdaten",
            "timestamp": "2019-05-15 21:49:55"
        }
    ],
    [
        503,
        {
            "id": 503,
            "latitude": "48.12",
            "longitude": "11.488",
            "altitude": "541.6",
            "country": "DE",
            "city": "Pasing",
            "origin": "luftdaten",
            "timestamp": "2019-05-15 21:51:37"
        }
    ],
    [
        508,
        {
            "id": 508,
            "latitude": "51.466",
            "longitude": "7.1",
            "altitude": "93.3",
            "country": "DE",
            "city": "Gelsenkirchen",
            "origin": "luftdaten",
            "timestamp": "2019-05-15 21:51:46"
        }
    ],
    [
        513,
        {
            "id": 513,
            "latitude": "51.444",
            "longitude": "7.196",
            "altitude": "143.4",
            "country": "DE",
            "city": "Bochum",
            "origin": "luftdaten",
            "timestamp": "2019-05-15 21:50:47"
        }
    ],
    [
        515,
        {
            "id": 515,
            "latitude": "51.47",
            "longitude": "7.222",
            "altitude": "102.9",
            "country": "DE",
            "city": "Bochum",
            "origin": "luftdaten",
            "timestamp": "2019-05-15 21:52:07"
        }
    ],
    [
        516,
        {
            "id": 516,
            "latitude": "51.482",
            "longitude": "7.12",
            "altitude": "61.8",
            "country": "DE",
            "city": "Gelsenkirchen",
            "origin": "luftdaten",
            "timestamp": "2019-05-15 21:51:41"
        }
    ],
    [
        517,
        {
            "id": 517,
            "latitude": "51.466",
            "longitude": "7.1",
            "altitude": "92.9",
            "country": "DE",
            "city": "Gelsenkirchen",
            "origin": "luftdaten",
            "timestamp": "2019-05-15 21:51:52"
        }
    ],
    [
        519,
        {
            "id": 519,
            "latitude": "51.474",
            "longitude": "7.216",
            "altitude": "96.8",
            "country": "DE",
            "city": "Bochum",
            "origin": "luftdaten",
            "timestamp": "2019-05-15 21:51:26"
        }
    ],
    [
        520,
        {
            "id": 520,
            "latitude": "50.932",
            "longitude": "6.962",
            "altitude": "48.6",
            "country": "DE",
            "city": "Altstadt Sud",
            "origin": "luftdaten",
            "timestamp": "2019-05-15 21:50:12"
        }
    ],
    [
        523,
        {
            "id": 523,
            "latitude": "51.512",
            "longitude": "7.478",
            "altitude": "98.4",
            "country": "DE",
            "city": "Dortmund",
            "origin": "luftdaten",
            "timestamp": "2019-05-15 21:50:44"
        }
    ],
    [
        524,
        {
            "id": 524,
            "latitude": "53.464",
            "longitude": "9.972",
            "altitude": "32.5",
            "country": "DE",
            "city": "Harburg",
            "origin": "luftdaten",
            "timestamp": "2019-05-15 21:50:38"
        }
    ],
    [
        525,
        {
            "id": 525,
            "latitude": "50.086",
            "longitude": "8.634",
            "altitude": "98.8",
            "country": "DE",
            "city": "Niederrad",
            "origin": "luftdaten",
            "timestamp": "2019-05-15 21:51:17"
        }
    ],
    [
        526,
        {
            "id": 526,
            "latitude": "51.392",
            "longitude": "12.448",
            "altitude": "120.4",
            "country": "DE",
            "city": "Taucha",
            "origin": "luftdaten",
            "timestamp": "2019-05-15 21:28:20",
            "sensors": [
                {
                    "id": 1074,
                    "manufacturer": "Nova Fitness",
                    "name": "SDS011",
                    "stationID": 526,
                    "PM10": "6.03",
                    "PM25": "3.13"
                },
                {
                    "id": 1075,
                    "manufacturer": "various",
                    "name": "DHT22",
                    "stationID": 526,
                    "humidity": "91.50",
                    "temperature": "9.50"
                }
            ]
        }
    ],
    [
        527,
        {
            "id": 527,
            "latitude": "48.726",
            "longitude": "9.362",
            "altitude": "255.9",
            "country": "DE",
            "city": "Altbach",
            "origin": "luftdaten",
            "timestamp": "2019-05-15 21:51:37"
        }
    ],
    [
        528,
        {
            "id": 528,
            "latitude": "47.872",
            "longitude": "11.478",
            "altitude": "603.1",
            "country": "DE",
            "city": "Geretsried",
            "origin": "luftdaten",
            "timestamp": "2019-05-15 21:50:37"
        }
    ],
    [
        530,
        {
            "id": 530,
            "latitude": "51.448",
            "longitude": "7.238",
            "altitude": "153.6",
            "country": "DE",
            "city": "Bochum",
            "origin": "luftdaten",
            "timestamp": "2019-05-15 21:50:21"
        }
    ],
    [
        531,
        {
            "id": 531,
            "latitude": "47.818",
            "longitude": "9.652",
            "altitude": "494.5",
            "country": "DE",
            "city": "Baienfurt",
            "origin": "luftdaten",
            "timestamp": "2019-05-15 21:50:57"
        }
    ],
    [
        532,
        {
            "id": 532,
            "latitude": "49.436",
            "longitude": "11.1",
            "altitude": "320.2",
            "country": "DE",
            "city": "Nuremberg",
            "origin": "luftdaten",
            "timestamp": "2019-05-15 21:51:06"
        }
    ],
    [
        534,
        {
            "id": 534,
            "latitude": "48.704",
            "longitude": "9.122",
            "altitude": "447.9",
            "country": "DE",
            "city": "Leinfelden-Echterdingen",
            "origin": "luftdaten",
            "timestamp": "2019-05-15 21:51:25"
        }
    ],
    [
        535,
        {
            "id": 535,
            "latitude": "48.746",
            "longitude": "9.21",
            "altitude": "447.6",
            "country": "DE",
            "city": "Ostfildern",
            "origin": "luftdaten",
            "timestamp": "2019-05-15 21:50:26"
        }
    ],
    [
        536,
        {
            "id": 536,
            "latitude": "48.398",
            "longitude": "10.01",
            "altitude": "471.3",
            "country": "DE",
            "city": "Neu-Ulm",
            "origin": "luftdaten",
            "timestamp": "2019-05-15 21:51:32"
        }
    ],
    [
        538,
        {
            "id": 538,
            "latitude": "42.654",
            "longitude": "23.376",
            "altitude": "599.2",
            "country": "BG",
            "city": "Sofia",
            "origin": "luftdaten",
            "timestamp": "2019-05-15 21:52:02"
        }
    ],
    [
        543,
        {
            "id": 543,
            "latitude": "51.37",
            "longitude": "9.51",
            "altitude": "180.1",
            "country": "DE",
            "city": "Vellmar",
            "origin": "luftdaten",
            "timestamp": "2019-05-15 21:50:08"
        }
    ],
    [
        544,
        {
            "id": 544,
            "latitude": "42.58",
            "longitude": "23.35",
            "altitude": "991.3",
            "country": "BG",
            "city": "Sofia",
            "origin": "luftdaten",
            "timestamp": "2019-05-15 21:52:06"
        }
    ],
    [
        546,
        {
            "id": 546,
            "latitude": "48.784",
            "longitude": "9.178",
            "altitude": "249.5",
            "country": "DE",
            "city": "Stuttgart",
            "origin": "luftdaten",
            "timestamp": "2019-05-15 21:51:27"
        }
    ],
    [
        547,
        {
            "id": 547,
            "latitude": "50.402",
            "longitude": "8.816",
            "altitude": "159.6",
            "country": "DE",
            "city": "Wölfersheim",
            "origin": "luftdaten",
            "timestamp": "2019-05-15 21:50:09"
        }
    ],
    [
        548,
        {
            "id": 548,
            "latitude": "48.778",
            "longitude": "9.252",
            "altitude": "229.5",
            "country": "DE",
            "city": "Stuttgart-Ost",
            "origin": "luftdaten",
            "timestamp": "2019-05-15 21:50:05"
        }
    ],
    [
        553,
        {
            "id": 553,
            "latitude": "51.038",
            "longitude": "7.216",
            "altitude": "230.4",
            "country": "DE",
            "city": "Kürten",
            "origin": "luftdaten",
            "timestamp": "2019-05-15 21:49:54"
        }
    ],
    [
        555,
        {
            "id": 555,
            "latitude": "48.674",
            "longitude": "9.22",
            "altitude": "364.1",
            "country": "DE",
            "city": "Filderstadt",
            "origin": "luftdaten",
            "timestamp": "2019-05-15 21:50:51"
        }
    ],
    [
        556,
        {
            "id": 556,
            "latitude": "53.55",
            "longitude": "10.048",
            "altitude": "4.2",
            "country": "DE",
            "city": "Borgfelde",
            "origin": "luftdaten",
            "timestamp": "2019-05-15 21:50:38"
        }
    ],
    [
        8981,
        {
            "id": 8981,
            "latitude": "49.008",
            "longitude": "8.414",
            "altitude": "115.5",
            "country": "DE",
            "city": "Karlsruhe",
            "origin": "luftdaten",
            "timestamp": "2019-05-15 21:50:50"
        }
    ],
    [
        559,
        {
            "id": 559,
            "latitude": "48.628",
            "longitude": "8.924",
            "altitude": "449.7",
            "country": "DE",
            "city": "Gärtringen",
            "origin": "luftdaten",
            "timestamp": "2019-05-15 21:51:23"
        }
    ],
    [
        563,
        {
            "id": 563,
            "latitude": "48.772",
            "longitude": "9.168",
            "altitude": "271.2",
            "country": "DE",
            "city": "Stuttgart",
            "origin": "luftdaten",
            "timestamp": "2019-05-15 21:50:08"
        }
    ],
    [
        565,
        {
            "id": 565,
            "latitude": "47.428",
            "longitude": "9.742",
            "altitude": "417.4",
            "country": "AT",
            "city": "Dornbirn",
            "origin": "luftdaten",
            "timestamp": "2019-05-15 21:51:46"
        }
    ],
    [
        566,
        {
            "id": 566,
            "latitude": "48.414",
            "longitude": "9.118",
            "altitude": "584.5",
            "country": "DE",
            "city": "Nehren",
            "origin": "luftdaten",
            "timestamp": "2019-05-15 21:51:42"
        }
    ],
    [
        571,
        {
            "id": 571,
            "latitude": "50.93",
            "longitude": "6.926",
            "altitude": "51.3",
            "country": "DE",
            "city": "Neustadt/Süd",
            "origin": "luftdaten",
            "timestamp": "2019-05-15 21:51:31"
        }
    ],
    [
        576,
        {
            "id": 576,
            "latitude": "48.418",
            "longitude": "10.074",
            "altitude": "463.9",
            "country": "DE",
            "city": "Nersingen",
            "origin": "luftdaten",
            "timestamp": "2019-05-15 21:52:05"
        }
    ],
    [
        578,
        {
            "id": 578,
            "latitude": "48.408",
            "longitude": "10.004",
            "altitude": "473.5",
            "country": "DE",
            "city": "Ulm",
            "origin": "luftdaten",
            "timestamp": "2019-05-15 21:50:03"
        }
    ],
    [
        579,
        {
            "id": 579,
            "latitude": "52.046",
            "longitude": "8.532",
            "altitude": "91.8",
            "country": "DE",
            "city": "Bielefeld",
            "origin": "luftdaten",
            "timestamp": "2019-05-15 21:49:52"
        }
    ],
    [
        581,
        {
            "id": 581,
            "latitude": "51.604",
            "longitude": "7.07",
            "altitude": "64.0",
            "country": "DE",
            "city": "Herten",
            "origin": "luftdaten",
            "timestamp": "2019-05-15 21:50:07"
        }
    ],
    [
        1134,
        {
            "id": 1134,
            "latitude": "48.762",
            "longitude": "9.178",
            "altitude": "343.2",
            "country": "DE",
            "city": "Stuttgart",
            "origin": "luftdaten",
            "timestamp": "2019-05-15 21:50:04"
        }
    ],
    [
        592,
        {
            "id": 592,
            "latitude": "48.764",
            "longitude": "9.174",
            "altitude": "284.1",
            "country": "DE",
            "city": "Stuttgart",
            "origin": "luftdaten",
            "timestamp": "2019-05-15 21:51:15"
        }
    ],
    [
        593,
        {
            "id": 593,
            "latitude": "53.184",
            "longitude": "8.216",
            "altitude": "15.9",
            "country": "DE",
            "city": "Oldenburg",
            "origin": "luftdaten",
            "timestamp": "2019-05-15 21:50:19"
        }
    ],
    [
        595,
        {
            "id": 595,
            "latitude": "47.988",
            "longitude": "7.844",
            "altitude": "277.8",
            "country": "DE",
            "city": "Freiburg",
            "origin": "luftdaten",
            "timestamp": "2019-05-15 21:49:48"
        }
    ],
    [
        596,
        {
            "id": 596,
            "latitude": "50.52",
            "longitude": "12.132",
            "altitude": "395.3",
            "country": "DE",
            "city": "Plauen",
            "origin": "luftdaten",
            "timestamp": "2019-05-15 21:51:59"
        }
    ],
    [
        597,
        {
            "id": 597,
            "latitude": "51.998",
            "longitude": "5.88",
            "altitude": "75.1",
            "country": "NL",
            "city": "Hoogkamp",
            "origin": "luftdaten",
            "timestamp": "2019-05-15 21:49:58"
        }
    ],
    [
        598,
        {
            "id": 598,
            "latitude": "48.742",
            "longitude": "9.216",
            "altitude": "444.3",
            "country": "DE",
            "city": "Ostfildern",
            "origin": "luftdaten",
            "timestamp": "2019-05-15 21:51:34"
        }
    ],
    [
        599,
        {
            "id": 599,
            "latitude": "51.494",
            "longitude": "6.67",
            "altitude": "32.1",
            "country": "DE",
            "city": "Moers",
            "origin": "luftdaten",
            "timestamp": "2019-05-15 21:50:58"
        }
    ],
    [
        602,
        {
            "id": 602,
            "latitude": "48",
            "longitude": "7.84",
            "altitude": "269.8",
            "country": "DE",
            "city": "Freiburg",
            "origin": "luftdaten",
            "timestamp": "2019-05-15 21:51:57"
        }
    ],
    [
        604,
        {
            "id": 604,
            "latitude": "48.818",
            "longitude": "9.17",
            "altitude": "275.8",
            "country": "DE",
            "city": "Stuttgart Feuerbach",
            "origin": "luftdaten",
            "timestamp": "2019-05-15 21:51:51"
        }
    ],
    [
        608,
        {
            "id": 608,
            "latitude": "51.246",
            "longitude": "6.79",
            "altitude": "43.0",
            "country": "DE",
            "city": "Düsseldorf-Pempelfort",
            "origin": "luftdaten",
            "timestamp": "2019-05-15 21:51:35"
        }
    ],
    [
        612,
        {
            "id": 612,
            "latitude": "51.44",
            "longitude": "6.662",
            "altitude": "30.3",
            "country": "DE",
            "city": "Moers",
            "origin": "luftdaten",
            "timestamp": "2019-05-15 21:50:36"
        }
    ],
    [
        618,
        {
            "id": 618,
            "latitude": "51.454",
            "longitude": "6.626",
            "altitude": "27.8",
            "country": "DE",
            "city": "Moers",
            "origin": "luftdaten",
            "timestamp": "2019-05-15 21:50:55"
        }
    ],
    [
        619,
        {
            "id": 619,
            "latitude": "51.472",
            "longitude": "6.628",
            "altitude": "26.3",
            "country": "DE",
            "city": "Moers",
            "origin": "luftdaten",
            "timestamp": "2019-05-15 21:51:56"
        }
    ],
    [
        622,
        {
            "id": 622,
            "latitude": "50.112",
            "longitude": "8.704",
            "altitude": "100.7",
            "country": "DE",
            "city": "Frankfurt am Main",
            "origin": "luftdaten",
            "timestamp": "2019-05-15 21:50:55"
        }
    ],
    [
        629,
        {
            "id": 629,
            "latitude": "48.632",
            "longitude": "10.23",
            "altitude": "484.9",
            "country": "DE",
            "city": "Giengen an der Brenz",
            "origin": "luftdaten",
            "timestamp": "2019-05-15 21:51:11"
        }
    ],
    [
        631,
        {
            "id": 631,
            "latitude": "51.024",
            "longitude": "13.826",
            "altitude": "115.1",
            "country": "DE",
            "city": "Heidenau",
            "origin": "luftdaten",
            "timestamp": "2019-05-15 21:51:16"
        }
    ],
    [
        634,
        {
            "id": 634,
            "latitude": "48.81",
            "longitude": "9.148",
            "altitude": "304.4",
            "country": "DE",
            "city": "Stuttgart Feuerbach",
            "origin": "luftdaten",
            "timestamp": "2019-05-15 21:50:45"
        }
    ],
    [
        639,
        {
            "id": 639,
            "latitude": "48.468",
            "longitude": "7.958",
            "altitude": "169.1",
            "country": "DE",
            "city": "Offenburg",
            "origin": "luftdaten",
            "timestamp": "2019-05-15 21:51:23"
        }
    ],
    [
        640,
        {
            "id": 640,
            "latitude": "48.31",
            "longitude": "11.728",
            "altitude": "462.5",
            "country": "DE",
            "city": "Hallbergmoos",
            "origin": "luftdaten",
            "timestamp": "2019-05-15 21:50:56"
        }
    ],
    [
        641,
        {
            "id": 641,
            "latitude": "48.492",
            "longitude": "9.184",
            "altitude": "390.4",
            "country": "DE",
            "city": "Reutlingen",
            "origin": "luftdaten",
            "timestamp": "2019-05-15 21:51:24"
        }
    ],
    [
        643,
        {
            "id": 643,
            "latitude": "48.788",
            "longitude": "9.216",
            "altitude": "233.8",
            "country": "DE",
            "city": "Stuttgart-Ost",
            "origin": "luftdaten",
            "timestamp": "2019-05-15 21:50:00"
        }
    ],
    [
        645,
        {
            "id": 645,
            "latitude": "42.674",
            "longitude": "23.354",
            "altitude": "583.4",
            "country": "BG",
            "city": "Sofia",
            "origin": "luftdaten",
            "timestamp": "2019-05-15 21:51:54"
        }
    ],
    [
        646,
        {
            "id": 646,
            "latitude": "48.696",
            "longitude": "9.114",
            "altitude": "454.7",
            "country": "DE",
            "city": "Steinenbronn",
            "origin": "luftdaten",
            "timestamp": "2019-05-15 21:50:46"
        }
    ],
    [
        647,
        {
            "id": 647,
            "latitude": "48.84",
            "longitude": "9.314",
            "altitude": "239.7",
            "country": "DE",
            "city": "Waiblingen",
            "origin": "luftdaten",
            "timestamp": "2019-05-15 21:50:36"
        }
    ],
    [
        650,
        {
            "id": 650,
            "latitude": "52.274",
            "longitude": "10.512",
            "altitude": "69.9",
            "country": "DE",
            "city": "Braunschweig",
            "origin": "luftdaten",
            "timestamp": "2019-05-15 21:51:36"
        }
    ],
    [
        651,
        {
            "id": 651,
            "latitude": "49.324",
            "longitude": "8.698",
            "altitude": "154.6",
            "country": "DE",
            "city": "Nußloch",
            "origin": "luftdaten",
            "timestamp": "2019-05-15 21:50:49"
        }
    ],
    [
        656,
        {
            "id": 656,
            "latitude": "48.778",
            "longitude": "9.156",
            "altitude": "280.7",
            "country": "DE",
            "city": "Stuttgart",
            "origin": "luftdaten",
            "timestamp": "2019-05-15 21:49:55"
        }
    ],
    [
        662,
        {
            "id": 662,
            "latitude": "48.814",
            "longitude": "9.318",
            "altitude": "267.8",
            "country": "DE",
            "city": "Waiblingen",
            "origin": "luftdaten",
            "timestamp": "2019-05-15 21:52:05"
        }
    ],
    [
        663,
        {
            "id": 663,
            "latitude": "48.156",
            "longitude": "11.558",
            "altitude": "518.6",
            "country": "DE",
            "city": "Munich",
            "origin": "luftdaten",
            "timestamp": "2019-05-15 21:50:51"
        }
    ],
    [
        666,
        {
            "id": 666,
            "latitude": "48.54",
            "longitude": "9.268",
            "altitude": "362.6",
            "country": "DE",
            "city": "Metzingen",
            "origin": "luftdaten",
            "timestamp": "2019-05-15 21:50:28"
        }
    ],
    [
        667,
        {
            "id": 667,
            "latitude": "48.796",
            "longitude": "9.48",
            "altitude": "248.8",
            "country": "DE",
            "city": "Winterbach",
            "origin": "luftdaten",
            "timestamp": "2019-05-15 21:49:47"
        }
    ],
    [
        668,
        {
            "id": 668,
            "latitude": "49.88",
            "longitude": "8.666",
            "altitude": "157.7",
            "country": "DE",
            "city": "Darmstadt",
            "origin": "luftdaten",
            "timestamp": "2019-05-15 21:52:11"
        }
    ],
    [
        669,
        {
            "id": 669,
            "latitude": "50.206",
            "longitude": "9.998",
            "altitude": "296.4",
            "country": "DE",
            "city": "Oberthulba",
            "origin": "luftdaten",
            "timestamp": "2019-05-15 21:51:26"
        }
    ],
    [
        670,
        {
            "id": 670,
            "latitude": "48.83",
            "longitude": "9.328",
            "altitude": "225.1",
            "country": "DE",
            "city": "Waiblingen",
            "origin": "luftdaten",
            "timestamp": "2019-05-15 21:51:47"
        }
    ],
    [
        671,
        {
            "id": 671,
            "latitude": "48.972",
            "longitude": "9.276",
            "altitude": "229.6",
            "country": "DE",
            "city": "Steinheim am der Murr",
            "origin": "luftdaten",
            "timestamp": "2019-05-15 21:51:30"
        }
    ],
    [
        672,
        {
            "id": 672,
            "latitude": "48.746",
            "longitude": "9.21",
            "altitude": "447.7",
            "country": "DE",
            "city": "Ostfildern",
            "origin": "luftdaten",
            "timestamp": "2019-05-15 21:51:15"
        }
    ],
    [
        673,
        {
            "id": 673,
            "latitude": "48.098",
            "longitude": "14.422",
            "altitude": "367.2",
            "country": "AT",
            "city": "Dietach",
            "origin": "luftdaten",
            "timestamp": "2019-05-15 21:50:48"
        }
    ],
    [
        674,
        {
            "id": 674,
            "latitude": "45.552",
            "longitude": "-122.6",
            "altitude": "69.0",
            "country": "US",
            "city": "Portland",
            "origin": "luftdaten",
            "timestamp": "2019-05-15 21:50:44"
        }
    ],
    [
        675,
        {
            "id": 675,
            "latitude": "52.954",
            "longitude": "8.706",
            "altitude": "23.2",
            "country": "DE",
            "city": "Kirchseelte",
            "origin": "luftdaten",
            "timestamp": "2019-05-15 21:50:19"
        }
    ],
    [
        676,
        {
            "id": 676,
            "latitude": "48.758",
            "longitude": "9.168",
            "altitude": "378.0",
            "country": "DE",
            "city": "Stuttgart",
            "origin": "luftdaten",
            "timestamp": "2019-05-15 21:52:04"
        }
    ],
    [
        678,
        {
            "id": 678,
            "latitude": "49.242",
            "longitude": "9.334",
            "altitude": "192.5",
            "country": "DE",
            "city": "Neuenstadt am Kocher",
            "origin": "luftdaten",
            "timestamp": "2019-05-15 21:50:37"
        }
    ],
    [
        681,
        {
            "id": 681,
            "latitude": "48.208",
            "longitude": "8.756",
            "altitude": "686.0",
            "country": "DE",
            "city": "Schömberg",
            "origin": "luftdaten",
            "timestamp": "2019-05-15 21:50:05"
        }
